{
  "type": "FeatureCollection",
  "generator": "overpass-turbo",
  "copyright": "The data included in this document is from www.openstreetmap.org. The data is made available under ODbL.",
  "timestamp": "2026-04-24T07:42:43Z",
  "features": [
    {
      "type": "Feature",
      "properties": {
        "@id": "node/44280965",
        "is_in": "Badulla District",
        "name": "Rawana Ella Falls",
        "tourism": "attraction",
        "waterway": "waterfall"
      },
      "geometry": {
        "type": "Point",
        "coordinates": [
          81.0545278,
          6.8408548
        ]
      },
      "id": "node/44280965"
    },
    {
      "type": "Feature",
      "properties": {
        "@id": "node/676861111",
        "name": "Baker's Falls",
        "waterway": "waterfall",
        "wikidata": "Q37307"
      },
      "geometry": {
        "type": "Point",
        "coordinates": [
          80.789623,
          6.7925595
        ]
      },
      "id": "node/676861111"
    },
    {
      "type": "Feature",
      "properties": {
        "@id": "node/1410576898",
        "amenity": "place_of_worship",
        "artwork_type": "statue",
        "name": "Second Samadhi Buddha Statue",
        "religion": "buddhist",
        "tourism": "artwork"
      },
      "geometry": {
        "type": "Point",
        "coordinates": [
          80.3929702,
          8.369115
        ]
      },
      "id": "node/1410576898"
    },
    {
      "type": "Feature",
      "properties": {
        "@id": "node/1708405577",
        "addr:city": "Ellepola",
        "addr:street": "Ratnapura - Wellawaya Road",
        "name": "Ellepola Ella",
        "tourism": "viewpoint",
        "waterway": "waterfall"
      },
      "geometry": {
        "type": "Point",
        "coordinates": [
          80.6860466,
          6.6307993
        ]
      },
      "id": "node/1708405577"
    },
    {
      "type": "Feature",
      "properties": {
        "@id": "node/2055187239",
        "name": "Ramboda Middle Falls",
        "waterway": "waterfall"
      },
      "geometry": {
        "type": "Point",
        "coordinates": [
          80.7013657,
          7.0545948
        ]
      },
      "id": "node/2055187239"
    },
    {
      "type": "Feature",
      "properties": {
        "@id": "node/2141657994",
        "name": "Thummodara Ranmudu Ella",
        "tourism": "attraction",
        "waterway": "waterfall"
      },
      "geometry": {
        "type": "Point",
        "coordinates": [
          80.1708905,
          6.8647276
        ]
      },
      "id": "node/2141657994"
    },
    {
      "type": "Feature",
      "properties": {
        "@id": "node/2176947342",
        "name": "Hathmale Ella",
        "tourism": "viewpoint",
        "waterway": "waterfall"
      },
      "geometry": {
        "type": "Point",
        "coordinates": [
          80.5061691,
          6.3319645
        ]
      },
      "id": "node/2176947342"
    },
    {
      "type": "Feature",
      "properties": {
        "@id": "node/2560262913",
        "alt_name": "Rathna Falls",
        "name": "Ratha Ella",
        "waterway": "waterfall"
      },
      "geometry": {
        "type": "Point",
        "coordinates": [
          80.9245902,
          7.3746872
        ]
      },
      "id": "node/2560262913"
    },
    {
      "type": "Feature",
      "properties": {
        "@id": "node/2611001772",
        "name": "Moray Falls",
        "waterway": "waterfall"
      },
      "geometry": {
        "type": "Point",
        "coordinates": [
          80.5426007,
          6.7983418
        ]
      },
      "id": "node/2611001772"
    },
    {
      "type": "Feature",
      "properties": {
        "@id": "node/2714398571",
        "name": "Sri Pada Falls (Adam Peak's Falls)",
        "waterway": "waterfall"
      },
      "geometry": {
        "type": "Point",
        "coordinates": [
          80.5487307,
          6.798623
        ]
      },
      "id": "node/2714398571"
    },
    {
      "type": "Feature",
      "properties": {
        "@id": "node/2804314660",
        "alt_name": "Pahanthudawa Ella",
        "name": "Pahanthudawa Waterfall",
        "waterway": "waterfall"
      },
      "geometry": {
        "type": "Point",
        "coordinates": [
          80.7586422,
          6.7262161
        ]
      },
      "id": "node/2804314660"
    },
    {
      "type": "Feature",
      "properties": {
        "@id": "node/3207148721",
        "name": "Laxapana Falls",
        "waterway": "waterfall",
        "wikidata": "Q6505129"
      },
      "geometry": {
        "type": "Point",
        "coordinates": [
          80.5009038,
          6.899106
        ]
      },
      "id": "node/3207148721"
    },
    {
      "type": "Feature",
      "properties": {
        "@id": "node/3220661583",
        "name": "Lanka Falls",
        "waterway": "waterfall"
      },
      "geometry": {
        "type": "Point",
        "coordinates": [
          80.8263736,
          6.7731512
        ]
      },
      "id": "node/3220661583"
    },
    {
      "type": "Feature",
      "properties": {
        "@id": "node/3254826636",
        "name": "Lover's Leap Waterfall",
        "tourism": "attraction",
        "waterway": "waterfall"
      },
      "geometry": {
        "type": "Point",
        "coordinates": [
          80.7867203,
          6.9784844
        ]
      },
      "id": "node/3254826636"
    },
    {
      "type": "Feature",
      "properties": {
        "@id": "node/3301935943",
        "name": "Dunhinda Falls",
        "tourism": "attraction",
        "waterway": "waterfall",
        "wikidata": "Q38347"
      },
      "geometry": {
        "type": "Point",
        "coordinates": [
          81.063492,
          7.0169435
        ]
      },
      "id": "node/3301935943"
    },
    {
      "type": "Feature",
      "properties": {
        "@id": "node/3367873791",
        "name": "Polomgampala Waterfall",
        "waterway": "waterfall"
      },
      "geometry": {
        "type": "Point",
        "coordinates": [
          80.2111563,
          6.4631371
        ]
      },
      "id": "node/3367873791"
    },
    {
      "type": "Feature",
      "properties": {
        "@id": "node/3563664791",
        "alt_name": "Doowili Ella Waterfall",
        "name": "Dooli Ella Waterfall",
        "name:si": "දූලි ඇල්ල",
        "tourism": "attraction",
        "waterway": "waterfall"
      },
      "geometry": {
        "type": "Point",
        "coordinates": [
          80.392724,
          6.3919677
        ]
      },
      "id": "node/3563664791"
    },
    {
      "type": "Feature",
      "properties": {
        "@id": "node/3563677193",
        "name": "Brahmana Ella Water Fall",
        "waterway": "waterfall"
      },
      "geometry": {
        "type": "Point",
        "coordinates": [
          80.4527399,
          6.375223
        ]
      },
      "id": "node/3563677193"
    },
    {
      "type": "Feature",
      "properties": {
        "@id": "node/3578062111",
        "alt_name": "Makeli Ella",
        "name": "Makeliya Water Fall",
        "name:si": "මාකෙලි ඇල්ල",
        "tourism": "attraction",
        "waterway": "waterfall"
      },
      "geometry": {
        "type": "Point",
        "coordinates": [
          80.2816914,
          6.6057951
        ]
      },
      "id": "node/3578062111"
    },
    {
      "type": "Feature",
      "properties": {
        "@id": "node/3726925126",
        "addr:city": "Maduwanwela",
        "alt_name": "Dooli Ella",
        "name": "Duli ella",
        "name:si": "දූලි ඇල්ල",
        "tourism": "attraction",
        "waterway": "waterfall"
      },
      "geometry": {
        "type": "Point",
        "coordinates": [
          80.7142063,
          6.4005822
        ]
      },
      "id": "node/3726925126"
    },
    {
      "type": "Feature",
      "properties": {
        "@id": "node/3778233726",
        "name": "Duwili Ella",
        "tourism": "attraction",
        "waterway": "waterfall"
      },
      "geometry": {
        "type": "Point",
        "coordinates": [
          80.4081589,
          6.4393538
        ]
      },
      "id": "node/3778233726"
    },
    {
      "type": "Feature",
      "properties": {
        "@id": "node/3833099699",
        "name": "Bomburu Ella",
        "waterway": "waterfall"
      },
      "geometry": {
        "type": "Point",
        "coordinates": [
          80.8306935,
          6.9473172
        ]
      },
      "id": "node/3833099699"
    },
    {
      "type": "Feature",
      "properties": {
        "@id": "node/3975121346",
        "height": "109",
        "name": "Ramboda Lower Falls",
        "waterway": "waterfall"
      },
      "geometry": {
        "type": "Point",
        "coordinates": [
          80.6997315,
          7.0547791
        ]
      },
      "id": "node/3975121346"
    },
    {
      "type": "Feature",
      "properties": {
        "@id": "node/4008938797",
        "name": "Public Beach",
        "natural": "beach"
      },
      "geometry": {
        "type": "Point",
        "coordinates": [
          81.8620623,
          7.2243994
        ]
      },
      "id": "node/4008938797"
    },
    {
      "type": "Feature",
      "properties": {
        "@id": "node/4008938798",
        "name": "Public Beach",
        "natural": "beach"
      },
      "geometry": {
        "type": "Point",
        "coordinates": [
          81.8640579,
          7.2497306
        ]
      },
      "id": "node/4008938798"
    },
    {
      "type": "Feature",
      "properties": {
        "@id": "node/4008941763",
        "name": "Public Beach",
        "natural": "beach"
      },
      "geometry": {
        "type": "Point",
        "coordinates": [
          81.8673946,
          7.290928
        ]
      },
      "id": "node/4008941763"
    },
    {
      "type": "Feature",
      "properties": {
        "@id": "node/4430215189",
        "name": "Ramboda Upper Falls",
        "waterway": "waterfall"
      },
      "geometry": {
        "type": "Point",
        "coordinates": [
          80.7055863,
          7.0543939
        ]
      },
      "id": "node/4430215189"
    },
    {
      "type": "Feature",
      "properties": {
        "@id": "node/4439432082",
        "name": "Marakolliya Beach",
        "natural": "beach"
      },
      "geometry": {
        "type": "Point",
        "coordinates": [
          80.8301175,
          6.0429891
        ]
      },
      "id": "node/4439432082"
    },
    {
      "type": "Feature",
      "properties": {
        "@id": "node/4462731780",
        "addr:city": "Marangahawela",
        "addr:street": "Colombo - Ratnapura - Wellawaya - Batticaloa Road",
        "name": "Surathali Ella",
        "waterway": "waterfall"
      },
      "geometry": {
        "type": "Point",
        "coordinates": [
          80.8289666,
          6.7456821
        ]
      },
      "id": "node/4462731780"
    },
    {
      "type": "Feature",
      "properties": {
        "@id": "node/4507978494",
        "name": "Elgin Falls",
        "waterway": "waterfall"
      },
      "geometry": {
        "type": "Point",
        "coordinates": [
          80.7810229,
          6.8845413
        ]
      },
      "id": "node/4507978494"
    }
  ]
}